[
  {
    "name": "all",
    "latitude": 43.85,
    "longitude": -12.86,
    "country": null,
    "radius": null,
    "ranked": false
  },
  {
    "name": "Vienna",
    "latitude": 48.20849,
    "longitude": 16.37208,
    "country": "AT",
    "radius": 14,
    "neighborhoods": [
      {
        "name": "Innere Stadt",
        "radius": 2,
        "latitude": 48.208877,
        "longitude": 16.369743
      },
      {
        "name": "Leopoldstadt",
        "radius": 2,
        "latitude": 48.217206,
        "longitude": 16.391191
      },
      {
        "name": "Landstrasse",
        "radius": 2,
        "latitude": 48.20174,
        "longitude": 16.391612
      },
      {
        "name": "Margareten",
        "radius": 2,
        "latitude": 48.185762,
        "longitude": 16.353903
      },
      {
        "name": "Mariahilf",
        "radius": 2,
        "latitude": 48.196378,
        "longitude": 16.351577
      },
      {
        "name": "Neubau",
        "radius": 2,
        "latitude": 48.204288,
        "longitude": 16.34897
      },
      {
        "name": "Josefstadt",
        "radius": 2,
        "latitude": 48.212476,
        "longitude": 16.345401
      },
      {
        "name": "Alsergrund",
        "radius": 2,
        "latitude": 48.224904,
        "longitude": 16.356984
      }
    ],
    "ranked": true
  },
  {
    "name": "Graz",
    "latitude": 47.06667,
    "longitude": 15.45,
    "country": "AT",
    "radius": 5,
    "ranked": true
  },
  {
    "name": "Gent",
    "latitude": 51.05,
    "longitude": 3.71667,
    "country": "BE",
    "radius": 5,
    "ranked": true
  },
  {
    "name": "Charleroi",
    "latitude": 50.41136,
    "longitude": 4.44448,
    "country": "BE",
    "radius": 5,
    "ranked": true
  },
  {
    "name": "Brussels",
    "latitude": 50.85045,
    "longitude": 4.34878,
    "country": "BE",
    "radius": 10,
    "neighborhoods": [
      {
        "name": "Anderlecht",
        "radius": 2,
        "latitude": 50.836581,
        "longitude": 4.308187
      },
      {
        "name": "Auderghem",
        "radius": 2,
        "latitude": 50.816406,
        "longitude": 4.426518
      },
      {
        "name": "Berchem-Sainte-Agathe",
        "radius": 2,
        "latitude": 50.865782,
        "longitude": 4.292598
      },
      {
        "name": "Bruxelles",
        "radius": 2,
        "latitude": 50.85034,
        "longitude": 4.35171
      },
      {
        "name": "Etterbeek",
        "radius": 2,
        "latitude": 50.832578,
        "longitude": 4.388994
      },
      {
        "name": "Evere",
        "radius": 2,
        "latitude": 50.873935,
        "longitude": 4.400942
      },
      {
        "name": "Forest",
        "radius": 2,
        "latitude": 50.813433,
        "longitude": 4.324834
      },
      {
        "name": "Ganshoren",
        "radius": 2,
        "latitude": 50.872987,
        "longitude": 4.309333
      },
      {
        "name": "Ixelles",
        "radius": 2,
        "latitude": 50.833343,
        "longitude": 4.366629
      },
      {
        "name": "Jette",
        "radius": 2,
        "latitude": 50.880858,
        "longitude": 4.322789
      },
      {
        "name": "Koekelberg",
        "radius": 2,
        "latitude": 50.863381,
        "longitude": 4.330338
      },
      {
        "name": "Molenbeek-Saint-Jean",
        "radius": 2,
        "latitude": 50.852201,
        "longitude": 4.330328
      },
      {
        "name": "Saint-Gilles",
        "radius": 2,
        "latitude": 50.830144,
        "longitude": 4.340218
      },
      {
        "name": "Saint-Josse-ten-Noode",
        "radius": 2,
        "latitude": 50.853772,
        "longitude": 4.370466
      },
      {
        "name": "Schaerbeek",
        "radius": 2,
        "latitude": 50.867416,
        "longitude": 4.377298
      },
      {
        "name": "Uccle",
        "radius": 2,
        "latitude": 50.802398,
        "longitude": 4.34067
      },
      {
        "name": "Watermael-Boitsfort",
        "radius": 2,
        "latitude": 50.788157,
        "longitude": 4.418007
      },
      {
        "name": "Woluwe-Saint-Lambert",
        "radius": 2,
        "latitude": 50.848909,
        "longitude": 4.432088
      },
      {
        "name": "Woluwe-Saint-Pierre",
        "radius": 2,
        "latitude": 50.829981,
        "longitude": 4.433504
      }
    ],
    "ranked": true
  },
  {
    "name": "Antwerpen",
    "latitude": 51.21989,
    "longitude": 4.40346,
    "country": "BE",
    "radius": 6,
    "ranked": true
  },
  {
    "name": "Zürich",
    "latitude": 47.36667,
    "longitude": 8.55,
    "country": "CH",
    "radius": 6,
    "neighborhoods": [
      {
        "name": "Kreis 1",
        "radius": 2,
        "latitude": 47.374156,
        "longitude": 8.539632
      },
      {
        "name": "Kreis 2",
        "radius": 2,
        "latitude": 47.343046,
        "longitude": 8.527225
      },
      {
        "name": "Kreis 3",
        "radius": 2,
        "latitude": 47.364101,
        "longitude": 8.509246
      },
      {
        "name": "Kreis 4",
        "radius": 2,
        "latitude": 47.380756,
        "longitude": 8.517289
      },
      {
        "name": "Kreis 5",
        "radius": 2,
        "latitude": 47.386674,
        "longitude": 8.520589
      },
      {
        "name": "Kreis 6",
        "radius": 2,
        "latitude": 47.393446,
        "longitude": 8.545448
      },
      {
        "name": "Kreis 7",
        "radius": 2,
        "latitude": 47.368398,
        "longitude": 8.583532
      },
      {
        "name": "Kreis 8",
        "radius": 2,
        "latitude": 47.357465,
        "longitude": 8.565011
      }
    ],
    "ranked": true
  },
  {
    "name": "Prague",
    "latitude": 50.08804,
    "longitude": 14.42076,
    "country": "CZ",
    "radius": 11,
    "neighborhoods": [
      {
        "name": "Cerny Most",
        "radius": 2,
        "latitude": 50.106449,
        "longitude": 14.574448
      },
      {
        "name": "Dejvice",
        "radius": 2,
        "latitude": 50.101743,
        "longitude": 14.393182
      },
      {
        "name": "Florenc",
        "radius": 2,
        "latitude": 50.09117,
        "longitude": 14.438711
      },
      {
        "name": "Holesovice",
        "radius": 2,
        "latitude": 50.100518,
        "longitude": 14.450032
      },
      {
        "name": "Letna",
        "radius": 2,
        "latitude": 50.099444,
        "longitude": 14.420833
      },
      {
        "name": "Podoli",
        "radius": 2,
        "latitude": 50.057588,
        "longitude": 14.420736
      },
      {
        "name": "Smichov",
        "radius": 2,
        "latitude": 50.07201,
        "longitude": 14.404067
      },
      {
        "name": "Stare Mesto",
        "radius": 2,
        "latitude": 50.089438,
        "longitude": 14.419407
      },
      {
        "name": "Vinohrady",
        "radius": 2,
        "latitude": 50.07802,
        "longitude": 14.436324
      },
      {
        "name": "Vrsovice",
        "radius": 2,
        "latitude": 50.069119,
        "longitude": 14.452581
      },
      {
        "name": "Zizkov",
        "radius": 2,
        "latitude": 50.080646,
        "longitude": 14.45639
      }
    ],
    "ranked": true
  },
  {
    "name": "Ostrava",
    "latitude": 49.83465,
    "longitude": 18.28204,
    "country": "CZ",
    "radius": 5,
    "ranked": true
  },
  {
    "name": "Brno",
    "latitude": 49.19522,
    "longitude": 16.60796,
    "country": "CZ",
    "radius": 6,
    "ranked": true
  },
  {
    "name": "Wuppertal",
    "latitude": 51.27027,
    "longitude": 7.16755,
    "country": "DE",
    "radius": 6,
    "ranked": true
  },
  {
    "name": "Wiesbaden",
    "latitude": 50.08258,
    "longitude": 8.24932,
    "country": "DE",
    "radius": 5,
    "ranked": true
  },
  {
    "name": "Stuttgart",
    "latitude": 48.78232,
    "longitude": 9.17702,
    "country": "DE",
    "radius": 7,
    "ranked": true
  },
  {
    "name": "Oberhausen",
    "latitude": 51.47311,
    "longitude": 6.88074,
    "country": "DE",
    "radius": 5,
    "ranked": true
  },
  {
    "name": "Nürnberg",
    "latitude": 49.45421,
    "longitude": 11.07752,
    "country": "DE",
    "radius": 7,
    "ranked": true
  },
  {
    "name": "Münster",
    "latitude": 51.96236,
    "longitude": 7.62571,
    "country": "DE",
    "radius": 5,
    "ranked": true
  },
  {
    "name": "Munich",
    "latitude": 48.13743,
    "longitude": 11.57549,
    "country": "DE",
    "radius": 11,
    "ranked": true
  },
  {
    "name": "Mönchengladbach",
    "latitude": 51.18539,
    "longitude": 6.44172,
    "country": "DE",
    "radius": 5,
    "ranked": true
  },
  {
    "name": "Mannheim",
    "latitude": 49.49671,
    "longitude": 8.47955,
    "country": "DE",
    "radius": 5,
    "ranked": true
  },
  {
    "name": "Magdeburg",
    "latitude": 52.12773,
    "longitude": 11.62916,
    "country": "DE",
    "radius": 5,
    "ranked": true
  },
  {
    "name": "Lübeck",
    "latitude": 53.86893,
    "longitude": 10.68729,
    "country": "DE",
    "radius": 5,
    "ranked": true
  },
  {
    "name": "Leipzig",
    "latitude": 51.33962,
    "longitude": 12.37129,
    "country": "DE",
    "radius": 7,
    "ranked": true
  },
  {
    "name": "Krefeld",
    "latitude": 51.33921,
    "longitude": 6.58615,
    "country": "DE",
    "radius": 5,
    "ranked": true
  },
  {
    "name": "Köln",
    "latitude": 50.93333,
    "longitude": 6.95,
    "country": "DE",
    "radius": 10,
    "ranked": true
  },
  {
    "name": "Kiel",
    "latitude": 54.32133,
    "longitude": 10.13489,
    "country": "DE",
    "radius": 5,
    "ranked": true
  },
  {
    "name": "Karlsruhe",
    "latitude": 49.00937,
    "longitude": 8.40444,
    "country": "DE",
    "radius": 5,
    "ranked": true
  },
  {
    "name": "Hannover",
    "latitude": 52.37052,
    "longitude": 9.73322,
    "country": "DE",
    "radius": 7,
    "ranked": true
  },
  {
    "name": "Wandsbek",
    "latitude": 53.56667,
    "longitude": 10.1,
    "country": "DE",
    "radius": 6,
    "ranked": true
  },
  {
    "name": "Marienthal",
    "latitude": 53.56667,
    "longitude": 10.08333,
    "country": "DE",
    "radius": 5,
    "ranked": true
  },
  {
    "name": "Hamburg",
    "latitude": 53.57532,
    "longitude": 10.01534,
    "country": "DE",
    "radius": 14,
    "neighborhoods": [
      {
        "name": "Alsterdorf",
        "radius": 2,
        "latitude": 53.609999,
        "longitude": 10.012282
      },
      {
        "name": "Altona-Altstadt",
        "radius": 2,
        "latitude": 53.553577,
        "longitude": 9.951865
      },
      {
        "name": "Barmbek",
        "radius": 2,
        "latitude": 53.587424,
        "longitude": 10.044472
      },
      {
        "name": "Blankenese",
        "radius": 2,
        "latitude": 53.566344,
        "longitude": 9.798389
      },
      {
        "name": "Eimsbüttel",
        "radius": 2,
        "latitude": 53.574768,
        "longitude": 9.959453
      },
      {
        "name": "Eppendorf",
        "radius": 2,
        "latitude": 53.594151,
        "longitude": 9.98943
      },
      {
        "name": "Finkenwerder",
        "radius": 2,
        "latitude": 53.529481,
        "longitude": 9.863512
      },
      {
        "name": "Fuhlsbüttel",
        "radius": 2,
        "latitude": 53.629555,
        "longitude": 9.991153
      },
      {
        "name": "HafenCity",
        "radius": 2,
        "latitude": 53.539536,
        "longitude": 10.005129
      },
      {
        "name": "Hamburg-Altstadt",
        "radius": 2,
        "latitude": 53.54841,
        "longitude": 9.99709
      },
      {
        "name": "Hamm",
        "radius": 2,
        "latitude": 53.553145,
        "longitude": 10.055476
      },
      {
        "name": "Marienthal",
        "radius": 2,
        "latitude": 53.568327,
        "longitude": 10.100759
      },
      {
        "name": "Neustadt",
        "radius": 2,
        "latitude": 53.55112,
        "longitude": 9.98112
      },
      {
        "name": "Ottensen",
        "radius": 2,
        "latitude": 53.556026,
        "longitude": 9.922617
      },
      {
        "name": "Poppenbüttel",
        "radius": 2,
        "latitude": 53.65753,
        "longitude": 10.081011
      },
      {
        "name": "St. Georg",
        "radius": 2,
        "latitude": 53.553056,
        "longitude": 10.015278
      },
      {
        "name": "St. Pauli",
        "radius": 2,
        "latitude": 53.55235,
        "longitude": 9.966492
      },
      {
        "name": "Steinwerder",
        "radius": 2,
        "latitude": 53.534105,
        "longitude": 9.956019
      },
      {
        "name": "Sternschanze",
        "radius": 2,
        "latitude": 53.562087,
        "longitude": 9.964417
      },
      {
        "name": "Veddel",
        "radius": 2,
        "latitude": 53.519074,
        "longitude": 10.037156
      },
      {
        "name": "Wandsbek",
        "radius": 2,
        "latitude": 53.653645,
        "longitude": 10.107023
      },
      {
        "name": "Winterhude",
        "radius": 2,
        "latitude": 53.59731,
        "longitude": 10.009204
      }
    ],
    "ranked": true
  },
  {
    "name": "Halle (Saale)",
    "latitude": 51.5,
    "longitude": 12,
    "country": "DE",
    "radius": 5,
    "ranked": true
  },
  {
    "name": "Gelsenkirchen",
    "latitude": 51.5075,
    "longitude": 7.12283,
    "country": "DE",
    "radius": 5,
    "ranked": true
  },
  {
    "name": "Freiburg",
    "latitude": 47.9959,
    "longitude": 7.85222,
    "country": "DE",
    "radius": 5,
    "ranked": true
  },
  {
    "name": "Frankfurt am Main",
    "latitude": 50.11552,
    "longitude": 8.68417,
    "country": "DE",
    "radius": 8,
    "ranked": true
  },
  {
    "name": "Essen",
    "latitude": 51.45657,
    "longitude": 7.01228,
    "country": "DE",
    "radius": 7,
    "ranked": true
  },
  {
    "name": "Erfurt",
    "latitude": 50.9787,
    "longitude": 11.03283,
    "country": "DE",
    "radius": 5,
    "ranked": true
  },
  {
    "name": "Düsseldorf",
    "latitude": 51.22172,
    "longitude": 6.77616,
    "country": "DE",
    "radius": 7,
    "ranked": true
  },
  {
    "name": "Duisburg",
    "latitude": 51.43247,
    "longitude": 6.76516,
    "country": "DE",
    "radius": 7,
    "ranked": true
  },
  {
    "name": "Dresden",
    "latitude": 51.05089,
    "longitude": 13.73832,
    "country": "DE",
    "radius": 7,
    "ranked": true
  },
  {
    "name": "Dortmund",
    "latitude": 51.51494,
    "longitude": 7.466,
    "country": "DE",
    "radius": 7,
    "ranked": true
  },
  {
    "name": "Chemnitz",
    "latitude": 50.8357,
    "longitude": 12.92922,
    "country": "DE",
    "radius": 5,
    "ranked": true
  },
  {
    "name": "Bremen",
    "latitude": 53.07516,
    "longitude": 8.80777,
    "country": "DE",
    "radius": 7,
    "ranked": true
  },
  {
    "name": "Braunschweig",
    "latitude": 52.26594,
    "longitude": 10.52673,
    "country": "DE",
    "radius": 5,
    "ranked": true
  },
  {
    "name": "Bonn",
    "latitude": 50.73438,
    "longitude": 7.09549,
    "country": "DE",
    "radius": 5,
    "ranked": true
  },
  {
    "name": "Bochum",
    "latitude": 51.48165,
    "longitude": 7.21648,
    "country": "DE",
    "radius": 6,
    "ranked": true
  },
  {
    "name": "Bielefeld",
    "latitude": 52.03333,
    "longitude": 8.53333,
    "country": "DE",
    "radius": 6,
    "ranked": true
  },
  {
    "name": "Berlin",
    "latitude": 52.52437,
    "longitude": 13.41053,
    "country": "DE",
    "radius": 25,
    "ranked": true,
    "neighborhoods": [
      {
        "name": "Neukölln",
        "latitude": 52.440771,
        "longitude": 13.444507,
        "radius": 2,
        "ranked": true
      },
      {
        "name": "Marzahn",
        "latitude": 52.542659,
        "longitude": 13.549363,
        "radius": 2,
        "ranked": true
      },
      {
        "name": "Mitte",
        "latitude": 52.519444,
        "longitude": 13.406667,
        "radius": 2,
        "ranked": true
      },
      {
        "name": "Friedrichshain",
        "latitude": 52.515919,
        "longitude": 13.454574,
        "radius": 2,
        "ranked": true
      },
      {
        "name": "Kreuzberg",
        "latitude": 52.498605,
        "longitude": 13.391799,
        "radius": 2,
        "ranked": true
      },
      {
        "name": "Wilmersdorf",
        "latitude": 52.48333,
        "longitude": 13.31667,
        "radius": 2,
        "ranked": true
      },
      {
        "name": "Charlottenburg",
        "latitude": 52.51667,
        "longitude": 13.28333,
        "radius": 2,
        "ranked": true
      },
      {
        "name": "Moabit",
        "latitude": 52.52635,
        "longitude": 13.33903,
        "radius": 2,
        "ranked": true
      },
      {
        "name": "Pankow",
        "latitude": 52.56926,
        "longitude": 13.40186,
        "radius": 2,
        "ranked": true
      },
      {
        "name": "Schöneberg",
        "latitude": 52.483333,
        "longitude": 13.366667,
        "radius": 2
      },
      {
        "name": "Prenzlauer Berg",
        "latitude": 52.53878,
        "longitude": 13.42443,
        "radius": 2,
        "ranked": true
      },
      {
        "name": "Reinickendorf",
        "latitude": 52.56667,
        "longitude": 13.33333,
        "radius": 2,
        "ranked": true
      },
      {
        "name": "Wedding",
        "latitude": 52.54734,
        "longitude": 13.35594,
        "radius": 2,
        "ranked": true
      },
      {
        "name": "Tempelhof",
        "latitude": 52.46667,
        "longitude": 13.4,
        "radius": 2,
        "ranked": true
      }
    ]
  },
  {
    "name": "Augsburg",
    "latitude": 48.37154,
    "longitude": 10.89851,
    "country": "DE",
    "radius": 5,
    "ranked": true
  },
  {
    "name": "Aachen",
    "latitude": 50.77664,
    "longitude": 6.08342,
    "country": "DE",
    "radius": 5,
    "ranked": true
  },
  {
    "name": "Copenhagen",
    "latitude": 55.67594,
    "longitude": 12.56553,
    "country": "DK",
    "radius": 11,
    "neighborhoods": [
      {
        "name": "Carlsberg",
        "radius": 2,
        "latitude": 55.667268,
        "longitude": 12.530443
      },
      {
        "name": "Christiania",
        "radius": 2,
        "latitude": 55.676042,
        "longitude": 12.608115
      },
      {
        "name": "Christianshavn",
        "radius": 2,
        "latitude": 55.671592,
        "longitude": 12.59294
      },
      {
        "name": "City Centre",
        "radius": 2,
        "latitude": 55.676111,
        "longitude": 12.568333
      },
      {
        "name": "Dragør",
        "radius": 2,
        "latitude": 55.583333,
        "longitude": 12.666667
      },
      {
        "name": "East Amager",
        "radius": 2,
        "latitude": 55.61077,
        "longitude": 12.605163
      },
      {
        "name": "Frederiksberg",
        "radius": 2,
        "latitude": 55.666667,
        "longitude": 12.533333
      },
      {
        "name": "Hellerup",
        "radius": 2,
        "latitude": 55.736654,
        "longitude": 12.569196
      },
      {
        "name": "Kødbyen",
        "radius": 2,
        "latitude": 55.668084,
        "longitude": 12.55893
      },
      {
        "name": "Nørrebro",
        "radius": 2,
        "latitude": 55.699117,
        "longitude": 12.554248
      },
      {
        "name": "Ørestad",
        "radius": 2,
        "latitude": 55.628435,
        "longitude": 12.578776
      },
      {
        "name": "Østerbro",
        "radius": 2,
        "latitude": 55.709155,
        "longitude": 12.577498
      },
      {
        "name": "Valby",
        "radius": 2,
        "latitude": 55.661658,
        "longitude": 12.516775
      },
      {
        "name": "Vesterbro",
        "radius": 2,
        "latitude": 55.663895,
        "longitude": 12.54254
      }
    ],
    "ranked": true
  },
  {
    "name": "Århus",
    "latitude": 56.15674,
    "longitude": 10.21076,
    "country": "DK",
    "radius": 5,
    "ranked": true
  },
  {
    "name": "Tallinn",
    "latitude": 59.43696,
    "longitude": 24.75353,
    "country": "EE",
    "radius": 6,
    "ranked": true
  },
  {
    "name": "Valencia",
    "latitude": 39.46975,
    "longitude": -0.37739,
    "country": "ES",
    "radius": 9,
    "ranked": true
  },
  {
    "name": "Sevilla",
    "latitude": 37.38283,
    "longitude": -5.97317,
    "country": "ES",
    "radius": 8,
    "ranked": true
  },
  {
    "name": "Palma",
    "latitude": 39.56939,
    "longitude": 2.65024,
    "country": "ES",
    "radius": 6,
    "ranked": true
  },
  {
    "name": "Murcia",
    "latitude": 37.98704,
    "longitude": -1.13004,
    "country": "ES",
    "radius": 6,
    "ranked": true
  },
  {
    "name": "Málaga",
    "latitude": 36.72016,
    "longitude": -4.42034,
    "country": "ES",
    "radius": 7,
    "ranked": true
  },
  {
    "name": "Jerez de la Frontera",
    "latitude": 36.68645,
    "longitude": -6.13606,
    "country": "ES",
    "radius": 5,
    "ranked": true
  },
  {
    "name": "Granada",
    "latitude": 37.18817,
    "longitude": -3.60667,
    "country": "ES",
    "radius": 5,
    "ranked": true
  },
  {
    "name": "Elche",
    "latitude": 38.26218,
    "longitude": -0.70107,
    "country": "ES",
    "radius": 5,
    "ranked": true
  },
  {
    "name": "Córdoba",
    "latitude": 37.89155,
    "longitude": -4.77275,
    "country": "ES",
    "radius": 6,
    "ranked": true
  },
  {
    "name": "Cartagena",
    "latitude": 37.60512,
    "longitude": -0.98623,
    "country": "ES",
    "radius": 5,
    "ranked": true
  },
  {
    "name": "Alicante",
    "latitude": 38.34517,
    "longitude": -0.48149,
    "country": "ES",
    "radius": 6,
    "ranked": true
  },
  {
    "name": "Zaragoza",
    "latitude": 41.65606,
    "longitude": -0.87734,
    "country": "ES",
    "radius": 8,
    "ranked": true
  },
  {
    "name": "Gasteiz / Vitoria",
    "latitude": 42.84998,
    "longitude": -2.67268,
    "country": "ES",
    "radius": 5,
    "ranked": true
  },
  {
    "name": "Vigo",
    "latitude": 42.23282,
    "longitude": -8.72264,
    "country": "ES",
    "radius": 5,
    "ranked": true
  },
  {
    "name": "Valladolid",
    "latitude": 41.65518,
    "longitude": -4.72372,
    "country": "ES",
    "radius": 5,
    "ranked": true
  },
  {
    "name": "Terrassa",
    "latitude": 41.56667,
    "longitude": 2.01667,
    "country": "ES",
    "radius": 5,
    "ranked": true
  },
  {
    "name": "Sabadell",
    "latitude": 41.54329,
    "longitude": 2.10942,
    "country": "ES",
    "radius": 5,
    "ranked": true
  },
  {
    "name": "Puente de Vallecas",
    "latitude": 40.39354,
    "longitude": -3.662,
    "country": "ES",
    "radius": 5,
    "ranked": true
  },
  {
    "name": "Oviedo",
    "latitude": 43.36029,
    "longitude": -5.84476,
    "country": "ES",
    "radius": 5,
    "ranked": true
  },
  {
    "name": "Móstoles",
    "latitude": 40.32234,
    "longitude": -3.86496,
    "country": "ES",
    "radius": 5,
    "ranked": true
  },
  {
    "name": "Madrid",
    "latitude": 40.4165,
    "longitude": -3.70256,
    "country": "ES",
    "radius": 24,
    "neighborhoods": [
      {
        "name": "Arganzuela",
        "radius": 2,
        "latitude": 40.398897,
        "longitude": -3.710223
      },
      {
        "name": "Barajas",
        "radius": 2,
        "latitude": 40.46537,
        "longitude": -3.595152
      },
      {
        "name": "Carabanchel",
        "radius": 2,
        "latitude": 40.377818,
        "longitude": -3.751232
      },
      {
        "name": "Centro",
        "radius": 2,
        "latitude": 40.416775,
        "longitude": -3.70379
      },
      {
        "name": "Chamartín",
        "radius": 2,
        "latitude": 40.461517,
        "longitude": -3.686584
      },
      {
        "name": "Chamberí",
        "radius": 2,
        "latitude": 40.434429,
        "longitude": -3.713178
      },
      {
        "name": "Ciudad Lineal",
        "radius": 2,
        "latitude": 40.445668,
        "longitude": -3.654384
      },
      {
        "name": "Fuencarral-El Pardo",
        "radius": 2,
        "latitude": 40.532278,
        "longitude": -3.78415
      },
      {
        "name": "Hortaleza",
        "radius": 2,
        "latitude": 40.469387,
        "longitude": -3.642499
      },
      {
        "name": "Latina",
        "radius": 2,
        "latitude": 40.40248,
        "longitude": -3.746462
      },
      {
        "name": "Moncloa-Aravaca",
        "radius": 2,
        "latitude": 40.441782,
        "longitude": -3.753666
      },
      {
        "name": "Moratalaz",
        "radius": 2,
        "latitude": 40.40722,
        "longitude": -3.657005
      },
      {
        "name": "Puente de Vallecas",
        "radius": 2,
        "latitude": 40.387004,
        "longitude": -3.669533
      },
      {
        "name": "Retiro",
        "radius": 2,
        "latitude": 40.411335,
        "longitude": -3.674908
      },
      {
        "name": "Salamanca",
        "radius": 2,
        "latitude": 40.427949,
        "longitude": -3.68675
      },
      {
        "name": "San Blas",
        "radius": 2,
        "latitude": 40.432184,
        "longitude": -3.62788
      },
      {
        "name": "Tetuán",
        "radius": 2,
        "latitude": 40.458835,
        "longitude": -3.697826
      },
      {
        "name": "Usera",
        "radius": 2,
        "latitude": 40.382593,
        "longitude": -3.709875
      },
      {
        "name": "Vicálvaro",
        "radius": 2,
        "latitude": 40.394028,
        "longitude": -3.602876
      },
      {
        "name": "Villa de Vallecas",
        "radius": 2,
        "latitude": 40.366956,
        "longitude": -3.606064
      },
      {
        "name": "Villaverde",
        "radius": 2,
        "latitude": 40.346911,
        "longitude": -3.710785
      }
    ],
    "ranked": true
  },
  {
    "name": "A Coruña",
    "latitude": 43.37135,
    "longitude": -8.396,
    "country": "ES",
    "radius": 5,
    "ranked": true
  },
  {
    "name": "L'Hospitalet de Llobregat",
    "latitude": 41.35967,
    "longitude": 2.10028,
    "country": "ES",
    "radius": 5,
    "ranked": true
  },
  {
    "name": "Gijón",
    "latitude": 43.53573,
    "longitude": -5.66152,
    "country": "ES",
    "radius": 5,
    "ranked": true
  },
  {
    "name": "Ciudad Lineal",
    "latitude": 40.45455,
    "longitude": -3.64808,
    "country": "ES",
    "radius": 5,
    "ranked": true
  },
  {
    "name": "Bilbao",
    "latitude": 43.26271,
    "longitude": -2.92528,
    "country": "ES",
    "radius": 6,
    "ranked": true
  },
  {
    "name": "Barcelona",
    "latitude": 41.38879,
    "longitude": 2.15899,
    "country": "ES",
    "radius": 14,
    "neighborhoods": [
      {
        "name": "Dreta de l'Eixample",
        "radius": 2,
        "latitude": 41.39631,
        "longitude": 2.165383
      },
      {
        "name": "El Born",
        "radius": 2,
        "latitude": 41.384724,
        "longitude": 2.182858
      },
      {
        "name": "El Gòtic",
        "radius": 2,
        "latitude": 41.381906,
        "longitude": 2.178185
      },
      {
        "name": "El Poble-sec",
        "radius": 2,
        "latitude": 41.37243,
        "longitude": 2.162878
      },
      {
        "name": "El Poblenou",
        "radius": 2,
        "latitude": 41.397737,
        "longitude": 2.201535
      },
      {
        "name": "El Raval",
        "radius": 2,
        "latitude": 41.379716,
        "longitude": 2.168184
      },
      {
        "name": "Gràcia",
        "radius": 2,
        "latitude": 41.409775,
        "longitude": 2.15392
      },
      {
        "name": "Horta-Guinardó",
        "radius": 2,
        "latitude": 41.433472,
        "longitude": 2.136887
      },
      {
        "name": "L'Antiga Esquerra de l'Eixample",
        "radius": 2,
        "latitude": 41.388557,
        "longitude": 2.157303
      },
      {
        "name": "La Barceloneta",
        "radius": 2,
        "latitude": 41.380894,
        "longitude": 2.189385
      },
      {
        "name": "La Nova Esquerra de l'Eixample",
        "radius": 2,
        "latitude": 41.383733,
        "longitude": 2.14748
      },
      {
        "name": "La Sagrada Família",
        "radius": 2,
        "latitude": 41.404484,
        "longitude": 2.175728
      },
      {
        "name": "La Vila Olímpica",
        "radius": 2,
        "latitude": 41.390741,
        "longitude": 2.194149
      },
      {
        "name": "Les Corts",
        "radius": 2,
        "latitude": 41.38349,
        "longitude": 2.116797
      },
      {
        "name": "Nou Barris",
        "radius": 2,
        "latitude": 41.445699,
        "longitude": 2.179414
      },
      {
        "name": "Sant Andreu",
        "radius": 2,
        "latitude": 41.433675,
        "longitude": 2.18579
      },
      {
        "name": "Sant Antoni",
        "radius": 2,
        "latitude": 41.377266,
        "longitude": 2.158531
      },
      {
        "name": "Sant Martí",
        "radius": 2,
        "latitude": 41.403137,
        "longitude": 2.199451
      },
      {
        "name": "Sant Pere/Santa Caterina",
        "radius": 2,
        "latitude": 41.386821,
        "longitude": 2.1831
      },
      {
        "name": "Sants-Montjuïc",
        "radius": 2,
        "latitude": 41.356136,
        "longitude": 2.149936
      },
      {
        "name": "Sarrià-Sant Gervasi",
        "radius": 2,
        "latitude": 41.399317,
        "longitude": 2.134175
      }
    ],
    "ranked": true
  },
  {
    "name": "Badalona",
    "latitude": 41.45004,
    "longitude": 2.24741,
    "country": "ES",
    "radius": 5,
    "ranked": true
  },
  {
    "name": "Alcalá de Henares",
    "latitude": 40.48205,
    "longitude": -3.35996,
    "country": "ES",
    "radius": 5,
    "ranked": true
  },
  {
    "name": "Eixample",
    "latitude": 41.38896,
    "longitude": 2.16179,
    "country": "ES",
    "radius": 5,
    "ranked": true
  },
  {
    "name": "Sant Martí",
    "latitude": 41.41814,
    "longitude": 2.19933,
    "country": "ES",
    "radius": 5,
    "ranked": true
  },
  {
    "name": "Latina",
    "latitude": 40.38897,
    "longitude": -3.74569,
    "country": "ES",
    "radius": 5,
    "ranked": true
  },
  {
    "name": "Carabanchel",
    "latitude": 40.39094,
    "longitude": -3.7242,
    "country": "ES",
    "radius": 5,
    "ranked": true
  },
  {
    "name": "Fuencarral-El Pardo",
    "latitude": 40.4984,
    "longitude": -3.7314,
    "country": "ES",
    "radius": 5,
    "ranked": true
  },
  {
    "name": "Tampere",
    "latitude": 61.49911,
    "longitude": 23.78712,
    "country": "FI",
    "radius": 5,
    "ranked": true
  },
  {
    "name": "Helsinki",
    "latitude": 60.16952,
    "longitude": 24.93545,
    "country": "FI",
    "radius": 7,
    "ranked": true
  },
  {
    "name": "Espoo",
    "latitude": 60.2052,
    "longitude": 24.6522,
    "country": "FI",
    "radius": 5,
    "ranked": true
  },
  {
    "name": "Toulouse",
    "latitude": 43.60426,
    "longitude": 1.44367,
    "country": "FR",
    "radius": 6,
    "ranked": true
  },
  {
    "name": "Strasbourg",
    "latitude": 48.58392,
    "longitude": 7.74553,
    "country": "FR",
    "radius": 5,
    "ranked": true
  },
  {
    "name": "Rennes",
    "latitude": 48.11198,
    "longitude": -1.67429,
    "country": "FR",
    "radius": 5,
    "ranked": true
  },
  {
    "name": "Paris",
    "latitude": 48.85341,
    "longitude": 2.3488,
    "country": "FR",
    "radius": 17,
    "neighborhoods": [
      {
        "name": "Bastille",
        "radius": 2,
        "latitude": 48.853078,
        "longitude": 2.36955
      },
      {
        "name": "Batignolles",
        "radius": 2,
        "latitude": 48.888299,
        "longitude": 2.314768
      },
      {
        "name": "Buttes-Chaumont - Belleville",
        "radius": 2,
        "latitude": 48.87929,
        "longitude": 2.386528
      },
      {
        "name": "Canal Saint-Martin",
        "radius": 2,
        "latitude": 48.876496,
        "longitude": 2.367139
      },
      {
        "name": "Champs-Elysées",
        "radius": 2,
        "latitude": 48.865784,
        "longitude": 2.307314
      },
      {
        "name": "Invalides - Ecole Militaire",
        "radius": 2,
        "latitude": 48.854194,
        "longitude": 2.305881
      },
      {
        "name": "La Chapelle",
        "radius": 2,
        "latitude": 48.892304,
        "longitude": 2.365735
      },
      {
        "name": "La Villette",
        "radius": 2,
        "latitude": 48.888389,
        "longitude": 2.372445
      },
      {
        "name": "Le Marais",
        "radius": 2,
        "latitude": 48.858703,
        "longitude": 2.358804
      },
      {
        "name": "Madeleine - Vendôme",
        "radius": 2,
        "latitude": 48.867489,
        "longitude": 2.329244
      },
      {
        "name": "Montmartre",
        "radius": 2,
        "latitude": 48.886715,
        "longitude": 2.33889
      },
      {
        "name": "Montparnasse",
        "radius": 2,
        "latitude": 48.837273,
        "longitude": 2.335387
      },
      {
        "name": "Notre Dame - Ile de La Cité",
        "radius": 2,
        "latitude": 48.854883,
        "longitude": 2.347493
      },
      {
        "name": "Opéra - Grands Boulevards",
        "radius": 2,
        "latitude": 48.856614,
        "longitude": 2.352222
      },
      {
        "name": "Palais Royal",
        "radius": 2,
        "latitude": 48.865221,
        "longitude": 2.335364
      },
      {
        "name": "Père Lachaise - Ménilmontant",
        "radius": 2,
        "latitude": 48.862965,
        "longitude": 2.387466
      },
      {
        "name": "Pigalle - Saint-Georges",
        "radius": 2,
        "latitude": 48.882255,
        "longitude": 2.337573
      },
      {
        "name": "Port-Royal",
        "radius": 2,
        "latitude": 48.839884,
        "longitude": 2.337036
      },
      {
        "name": "Porte de Clignancourt",
        "radius": 2,
        "latitude": 48.899692,
        "longitude": 2.343128
      },
      {
        "name": "Quartier Latin",
        "radius": 2,
        "latitude": 48.851378,
        "longitude": 2.343215
      },
      {
        "name": "République",
        "radius": 2,
        "latitude": 48.867503,
        "longitude": 2.363811
      },
      {
        "name": "Saint-Germain-des-Prés - Odéon",
        "radius": 2,
        "latitude": 48.854417,
        "longitude": 2.333618
      },
      {
        "name": "Saint-Paul - Ile Saint-Louis",
        "radius": 2,
        "latitude": 48.851833,
        "longitude": 2.356548
      },
      {
        "name": "Tour Eiffel - Champ de Mars",
        "radius": 2,
        "latitude": 48.85837,
        "longitude": 2.294481
      },
      {
        "name": "Vaugirard",
        "radius": 2,
        "latitude": 48.842162,
        "longitude": 2.292766
      }
    ],
    "ranked": true
  },
  {
    "name": "Nice",
    "latitude": 43.70313,
    "longitude": 7.26608,
    "country": "FR",
    "radius": 6,
    "ranked": true
  },
  {
    "name": "Nantes",
    "latitude": 47.21725,
    "longitude": -1.55336,
    "country": "FR",
    "radius": 5,
    "ranked": true
  },
  {
    "name": "Montpellier",
    "latitude": 43.61092,
    "longitude": 3.87723,
    "country": "FR",
    "radius": 5,
    "ranked": true
  },
  {
    "name": "Marseille",
    "latitude": 43.29695,
    "longitude": 5.38107,
    "country": "FR",
    "radius": 8,
    "ranked": true
  },
  {
    "name": "Lyon",
    "latitude": 45.74846,
    "longitude": 4.84671,
    "country": "FR",
    "radius": 6,
    "ranked": true
  },
  {
    "name": "Lille",
    "latitude": 50.63297,
    "longitude": 3.05858,
    "country": "FR",
    "radius": 5,
    "ranked": true
  },
  {
    "name": "Bordeaux",
    "latitude": 44.84044,
    "longitude": -0.5805,
    "country": "FR",
    "radius": 5,
    "ranked": true
  },
  {
    "name": "Zagreb",
    "latitude": 45.81444,
    "longitude": 15.97798,
    "country": "HR",
    "radius": 8,
    "ranked": true
  },
  {
    "name": "Debrecen",
    "latitude": 47.53333,
    "longitude": 21.63333,
    "country": "HU",
    "radius": 5,
    "ranked": true
  },
  {
    "name": "Budapest",
    "latitude": 47.49801,
    "longitude": 19.03991,
    "country": "HU",
    "radius": 14,
    "ranked": true
  },
  {
    "name": "Palermo",
    "latitude": 38.13205,
    "longitude": 13.33561,
    "country": "IT",
    "radius": 8,
    "ranked": true
  },
  {
    "name": "Messina",
    "latitude": 38.19394,
    "longitude": 15.55256,
    "country": "IT",
    "radius": 5,
    "ranked": true
  },
  {
    "name": "Catania",
    "latitude": 37.49223,
    "longitude": 15.07041,
    "country": "IT",
    "radius": 5,
    "ranked": true
  },
  {
    "name": "Verona",
    "latitude": 45.4299,
    "longitude": 10.98444,
    "country": "IT",
    "radius": 5,
    "ranked": true
  },
  {
    "name": "Turin",
    "latitude": 45.07049,
    "longitude": 7.68682,
    "country": "IT",
    "radius": 9,
    "ranked": true
  },
  {
    "name": "Rome",
    "latitude": 41.89193,
    "longitude": 12.51133,
    "country": "IT",
    "radius": 18,
    "neighborhoods": [
      {
        "name": "Centro Storico",
        "latitude": 41.902356,
        "longitude": 12.489655,
        "radius": 2
      },
      {
        "name": "Parioli",
        "latitude": 41.922368,
        "longitude": 12.498279,
        "radius": 2
      },
      {
        "name": "Nomentano - San Lorenzo",
        "latitude": 41.942533,
        "longitude": 12.540984,
        "radius": 2
      },
      {
        "name": "Monte Sacro",
        "latitude": 41.921642,
        "longitude": 12.553681,
        "radius": 2
      },
      {
        "name": "Tiburtina",
        "latitude": 41.891318,
        "longitude": 12.551016,
        "radius": 2
      },
      {
        "name": "Prenestino",
        "latitude": 41.8911,
        "longitude": 12.5492,
        "radius": 2
      },
      {
        "name": "Centocelle",
        "latitude": 41.85011,
        "longitude": 12.564226,
        "radius": 2
      },
      {
        "name": "delle Torri",
        "latitude": 41.855184,
        "longitude": 12.518331,
        "radius": 2
      },
      {
        "name": "San Giovanni",
        "latitude": 41.768319,
        "longitude": 12.50686,
        "radius": 2
      },
      {
        "name": "Cinecittà",
        "latitude": 41.893056,
        "longitude": 12.482778,
        "radius": 2
      },
      {
        "name": "Appia Antica",
        "latitude": 41.838917,
        "longitude": 12.44379,
        "radius": 2
      },
      {
        "name": "EUR",
        "latitude": 41.869533,
        "longitude": 12.432327,
        "radius": 2
      },
      {
        "name": "Ostie",
        "latitude": 41.902639,
        "longitude": 12.397943,
        "radius": 2
      },
      {
        "name": "Fiumicino",
        "latitude": 41.926453,
        "longitude": 12.403673,
        "radius": 2
      },
      {
        "name": "Arvalia Portuense",
        "latitude": 41.945231,
        "longitude": 12.455255,
        "radius": 2
      }
    ],
    "ranked": true
  },
  {
    "name": "Padova",
    "latitude": 45.40797,
    "longitude": 11.88586,
    "country": "IT",
    "radius": 5,
    "ranked": true
  },
  {
    "name": "Napoli",
    "latitude": 40.85631,
    "longitude": 14.24641,
    "country": "IT",
    "radius": 9,
    "ranked": true
  },
  {
    "name": "Milano",
    "latitude": 45.46427,
    "longitude": 9.18951,
    "country": "IT",
    "radius": 11,
    "ranked": true
  },
  {
    "name": "Genoa",
    "latitude": 44.4264,
    "longitude": 8.91519,
    "country": "IT",
    "radius": 7,
    "ranked": true
  },
  {
    "name": "Florence",
    "latitude": 43.77925,
    "longitude": 11.24626,
    "country": "IT",
    "radius": 6,
    "ranked": true
  },
  {
    "name": "Bologna",
    "latitude": 44.49381,
    "longitude": 11.33875,
    "country": "IT",
    "radius": 6,
    "ranked": true
  },
  {
    "name": "Bari",
    "latitude": 41.11148,
    "longitude": 16.8554,
    "country": "IT",
    "radius": 5,
    "ranked": true
  },
  {
    "name": "Vilnius",
    "latitude": 54.68916,
    "longitude": 25.2798,
    "country": "LT",
    "radius": 7,
    "ranked": true
  },
  {
    "name": "Kaunas",
    "latitude": 54.9,
    "longitude": 23.9,
    "country": "LT",
    "radius": 6,
    "ranked": true
  },
  {
    "name": "Riga",
    "latitude": 56.946,
    "longitude": 24.10589,
    "country": "LV",
    "radius": 8,
    "ranked": true
  },
  {
    "name": "Utrecht",
    "latitude": 52.09083,
    "longitude": 5.12222,
    "country": "NL",
    "radius": 5,
    "ranked": true
  },
  {
    "name": "The Hague",
    "latitude": 52.07667,
    "longitude": 4.29861,
    "country": "NL",
    "radius": 6,
    "ranked": true
  },
  {
    "name": "Rotterdam",
    "latitude": 51.9225,
    "longitude": 4.47917,
    "country": "NL",
    "radius": 7,
    "ranked": true
  },
  {
    "name": "Eindhoven",
    "latitude": 51.44083,
    "longitude": 5.47778,
    "country": "NL",
    "radius": 5,
    "ranked": true
  },
  {
    "name": "Amsterdam",
    "latitude": 52.37403,
    "longitude": 4.88969,
    "country": "NL",
    "radius": 8,
    "neighborhoods": [
      {
        "name": "Centrum",
        "radius": 2,
        "latitude": 52.37172,
        "longitude": 4.902073
      },
      {
        "name": "De Pijp",
        "radius": 2,
        "latitude": 52.349556,
        "longitude": 4.895923
      },
      {
        "name": "Jodenbuurt & Plantage",
        "radius": 2,
        "latitude": 52.370216,
        "longitude": 4.895168
      },
      {
        "name": "Jordaan",
        "radius": 2,
        "latitude": 52.373932,
        "longitude": 4.880876
      },
      {
        "name": "Leidseplein",
        "radius": 2,
        "latitude": 52.363708,
        "longitude": 4.882023
      },
      {
        "name": "Museumplein & Vondelpark",
        "radius": 2,
        "latitude": 52.357995,
        "longitude": 4.868648
      },
      {
        "name": "Rembrandtplein",
        "radius": 2,
        "latitude": 52.366293,
        "longitude": 4.897135
      }
    ],
    "ranked": true
  },
  {
    "name": "Warsaw",
    "latitude": 52.22977,
    "longitude": 21.01178,
    "country": "PL",
    "radius": 14,
    "neighborhoods": [
      {
        "name": "Bemowo",
        "radius": 2,
        "latitude": 52.240907,
        "longitude": 20.91133
      },
      {
        "name": "Bialoleka",
        "radius": 2,
        "latitude": 52.328988,
        "longitude": 21.007679
      },
      {
        "name": "Bielany",
        "radius": 2,
        "latitude": 52.293323,
        "longitude": 20.928664
      },
      {
        "name": "Mokotow",
        "radius": 2,
        "latitude": 52.194157,
        "longitude": 21.034695
      },
      {
        "name": "Ochota",
        "radius": 2,
        "latitude": 52.210336,
        "longitude": 20.971221
      },
      {
        "name": "Praga Polnoc",
        "radius": 2,
        "latitude": 52.263301,
        "longitude": 21.028317
      },
      {
        "name": "Praga Poludnie",
        "radius": 2,
        "latitude": 52.241681,
        "longitude": 21.08406
      },
      {
        "name": "Rembertow",
        "radius": 2,
        "latitude": 52.263071,
        "longitude": 21.145839
      },
      {
        "name": "Srodmiescie",
        "radius": 2,
        "latitude": 52.229676,
        "longitude": 21.012229
      },
      {
        "name": "Targowek",
        "radius": 2,
        "latitude": 52.282382,
        "longitude": 21.065368
      },
      {
        "name": "Ursus",
        "radius": 2,
        "latitude": 52.195123,
        "longitude": 20.883789
      },
      {
        "name": "Ursynow",
        "radius": 2,
        "latitude": 52.137854,
        "longitude": 21.029123
      },
      {
        "name": "Wawer",
        "radius": 2,
        "latitude": 52.196217,
        "longitude": 21.178225
      },
      {
        "name": "Wesola",
        "radius": 2,
        "latitude": 52.23294,
        "longitude": 21.225198
      },
      {
        "name": "Wilanow",
        "radius": 2,
        "latitude": 52.15613,
        "longitude": 21.111628
      },
      {
        "name": "Wlochy",
        "radius": 2,
        "latitude": 52.179906,
        "longitude": 20.947816
      },
      {
        "name": "Wola",
        "radius": 2,
        "latitude": 52.233375,
        "longitude": 20.957183
      },
      {
        "name": "Zoliborz",
        "radius": 2,
        "latitude": 52.269329,
        "longitude": 20.981875
      }
    ],
    "ranked": true
  },
  {
    "name": "Lublin",
    "latitude": 51.25,
    "longitude": 22.56667,
    "country": "PL",
    "radius": 6,
    "ranked": true
  },
  {
    "name": "Kielce",
    "latitude": 50.87033,
    "longitude": 20.62752,
    "country": "PL",
    "radius": 5,
    "ranked": true
  },
  {
    "name": "Białystok",
    "latitude": 53.13333,
    "longitude": 23.16433,
    "country": "PL",
    "radius": 5,
    "ranked": true
  },
  {
    "name": "Wrocław",
    "latitude": 51.1,
    "longitude": 17.03333,
    "country": "PL",
    "radius": 7,
    "ranked": true
  },
  {
    "name": "Toruń",
    "latitude": 53.01375,
    "longitude": 18.59814,
    "country": "PL",
    "radius": 5,
    "ranked": true
  },
  {
    "name": "Szczecin",
    "latitude": 53.42894,
    "longitude": 14.55302,
    "country": "PL",
    "radius": 6,
    "ranked": true
  },
  {
    "name": "Sosnowiec",
    "latitude": 50.28682,
    "longitude": 19.10385,
    "country": "PL",
    "radius": 5,
    "ranked": true
  },
  {
    "name": "Poznań",
    "latitude": 52.40692,
    "longitude": 16.92993,
    "country": "PL",
    "radius": 7,
    "ranked": true
  },
  {
    "name": "Łódź",
    "latitude": 51.75,
    "longitude": 19.46667,
    "country": "PL",
    "radius": 8,
    "ranked": true
  },
  {
    "name": "Kraków",
    "latitude": 50.06143,
    "longitude": 19.93658,
    "country": "PL",
    "radius": 8,
    "ranked": true
  },
  {
    "name": "Katowice / Metropolia Silesia",
    "latitude": 50.25841,
    "longitude": 19.02754,
    "country": "PL",
    "radius": 10,
    "ranked": true
  },
  {
    "name": "Gdańsk",
    "latitude": 54.35205,
    "longitude": 18.64637,
    "country": "PL",
    "radius": 6,
    "ranked": true
  },
  {
    "name": "Bydgoszcz",
    "latitude": 53.1235,
    "longitude": 18.00762,
    "country": "PL",
    "radius": 6,
    "ranked": true
  },
  {
    "name": "Lisbon",
    "latitude": 38.71667,
    "longitude": -9.13333,
    "country": "PT",
    "radius": 7,
    "ranked": true
  },
  {
    "name": "Porto",
    "latitude": 41.14961,
    "longitude": -8.61099,
    "country": "PT",
    "radius": 5,
    "ranked": true
  },
  {
    "name": "Stockholm",
    "latitude": 59.33258,
    "longitude": 18.0649,
    "country": "SE",
    "radius": 11,
    "ranked": true
  },
  {
    "name": "Malmö",
    "latitude": 55.60587,
    "longitude": 13.00073,
    "country": "SE",
    "radius": 5,
    "ranked": true
  },
  {
    "name": "Göteborg",
    "latitude": 57.70716,
    "longitude": 11.96679,
    "country": "SE",
    "radius": 7,
    "ranked": true
  },
  {
    "name": "Ljubljana",
    "latitude": 46.05108,
    "longitude": 14.50513,
    "country": "SI",
    "radius": 5,
    "ranked": true
  },
  {
    "name": "Košice",
    "latitude": 48.71395,
    "longitude": 21.25808,
    "country": "SK",
    "radius": 5,
    "ranked": true
  },
  {
    "name": "Bratislava",
    "latitude": 48.14816,
    "longitude": 17.10674,
    "country": "SK",
    "radius": 6
  },
  {
    "name": "London",
    "latitude": 51.507351,
    "longitude": -0.127758,
    "country": "UK",
    "radius": 20
  },
  {
    "name": "Geneva",
    "latitude": 46.201284,
    "longitude": 6.146902,
    "country": "CH",
    "radius": 6,
    "neighborhoods": [
      {
        "name": "Aïre",
        "latitude": 46.196821,
        "longitude": 6.099552,
        "radius": 1
      },
      {
        "name": "Champel",
        "latitude": 46.189679,
        "longitude": 6.15754,
        "radius": 1
      },
      {
        "name": "Cité-centre ",
        "latitude": 46.201041,
        "longitude": 6.148153,
        "radius": 1
      },
      {
        "name": "La Jonction",
        "latitude": 46.201507,
        "longitude": 6.127236,
        "radius": 1
      },
      {
        "name": "La Servette",
        "latitude": 46.211093,
        "longitude": 6.135192,
        "radius": 1
      },
      {
        "name": "Le Petit-Saconnex",
        "latitude": 46.216888,
        "longitude": 6.130688,
        "radius": 1
      },
      {
        "name": "Les Acacias ",
        "latitude": 46.19009,
        "longitude": 6.138757,
        "radius": 1
      },
      {
        "name": "Les Charmilles",
        "latitude": 46.208051,
        "longitude": 6.122701,
        "radius": 1
      },
      {
        "name": "Les Eaux-Vives",
        "latitude": 46.200495,
        "longitude": 6.165454,
        "radius": 1
      },
      {
        "name": "Les Grottes ",
        "latitude": 46.210479,
        "longitude": 6.138952,
        "radius": 1
      },
      {
        "name": "Les Pâquis",
        "latitude": 46.212126,
        "longitude": 6.149746,
        "radius": 1
      },
      {
        "name": "Les Vernets",
        "latitude": 46.192925,
        "longitude": 6.136223,
        "radius": 1
      },
      {
        "name": "Plainpalais",
        "latitude": 46.193889,
        "longitude": 6.141389,
        "radius": 1
      },
      {
        "name": "Saint-Gervais ",
        "latitude": 46.21111,
        "longitude": 6.138389,
        "radius": 1
      },
      {
        "name": "Saint-Jean ",
        "latitude": 46.205426,
        "longitude": 6.132192,
        "radius": 1
      },
      {
        "name": "Sécheron",
        "latitude": 46.222049,
        "longitude": 6.147041,
        "radius": 1
      }
    ],
    "ranked": true
  }
]