[
  {
    "name": "Vienna",
    "latitude": 48.20849,
    "longitude": 16.37208,
    "country": "AT",
    "radius": 14
  },
  {
    "name": "Graz",
    "latitude": 47.06667,
    "longitude": 15.45,
    "country": "AT",
    "radius": 5
  },
  {
    "name": "Gent",
    "latitude": 51.05,
    "longitude": 3.71667,
    "country": "BE",
    "radius": 5
  },
  {
    "name": "Charleroi",
    "latitude": 50.41136,
    "longitude": 4.44448,
    "country": "BE",
    "radius": 5
  },
  {
    "name": "Brussels",
    "latitude": 50.85045,
    "longitude": 4.34878,
    "country": "BE",
    "radius": 10
  },
  {
    "name": "Antwerpen",
    "latitude": 51.21989,
    "longitude": 4.40346,
    "country": "BE",
    "radius": 6
  },
  {
    "name": "Zürich",
    "latitude": 47.36667,
    "longitude": 8.55,
    "country": "CH",
    "radius": 6
  },
  {
    "name": "Prague",
    "latitude": 50.08804,
    "longitude": 14.42076,
    "country": "CZ",
    "radius": 11
  },
  {
    "name": "Ostrava",
    "latitude": 49.83465,
    "longitude": 18.28204,
    "country": "CZ",
    "radius": 5
  },
  {
    "name": "Brno",
    "latitude": 49.19522,
    "longitude": 16.60796,
    "country": "CZ",
    "radius": 6
  },
  {
    "name": "Wuppertal",
    "latitude": 51.27027,
    "longitude": 7.16755,
    "country": "DE",
    "radius": 6
  },
  {
    "name": "Wiesbaden",
    "latitude": 50.08258,
    "longitude": 8.24932,
    "country": "DE",
    "radius": 5
  },
  {
    "name": "Stuttgart",
    "latitude": 48.78232,
    "longitude": 9.17702,
    "country": "DE",
    "radius": 7
  },
  {
    "name": "Oberhausen",
    "latitude": 51.47311,
    "longitude": 6.88074,
    "country": "DE",
    "radius": 5
  },
  {
    "name": "Nürnberg",
    "latitude": 49.45421,
    "longitude": 11.07752,
    "country": "DE",
    "radius": 7
  },
  {
    "name": "Münster",
    "latitude": 51.96236,
    "longitude": 7.62571,
    "country": "DE",
    "radius": 5
  },
  {
    "name": "Munich",
    "latitude": 48.13743,
    "longitude": 11.57549,
    "country": "DE",
    "radius": 11
  },
  {
    "name": "Mönchengladbach",
    "latitude": 51.18539,
    "longitude": 6.44172,
    "country": "DE",
    "radius": 5
  },
  {
    "name": "Mannheim",
    "latitude": 49.49671,
    "longitude": 8.47955,
    "country": "DE",
    "radius": 5
  },
  {
    "name": "Magdeburg",
    "latitude": 52.12773,
    "longitude": 11.62916,
    "country": "DE",
    "radius": 5
  },
  {
    "name": "Lübeck",
    "latitude": 53.86893,
    "longitude": 10.68729,
    "country": "DE",
    "radius": 5
  },
  {
    "name": "Leipzig",
    "latitude": 51.33962,
    "longitude": 12.37129,
    "country": "DE",
    "radius": 7
  },
  {
    "name": "Krefeld",
    "latitude": 51.33921,
    "longitude": 6.58615,
    "country": "DE",
    "radius": 5
  },
  {
    "name": "Köln",
    "latitude": 50.93333,
    "longitude": 6.95,
    "country": "DE",
    "radius": 10
  },
  {
    "name": "Kiel",
    "latitude": 54.32133,
    "longitude": 10.13489,
    "country": "DE",
    "radius": 5
  },
  {
    "name": "Karlsruhe",
    "latitude": 49.00937,
    "longitude": 8.40444,
    "country": "DE",
    "radius": 5
  },
  {
    "name": "Hannover",
    "latitude": 52.37052,
    "longitude": 9.73322,
    "country": "DE",
    "radius": 7
  },
  {
    "name": "Wandsbek",
    "latitude": 53.56667,
    "longitude": 10.1,
    "country": "DE",
    "radius": 6
  },
  {
    "name": "Marienthal",
    "latitude": 53.56667,
    "longitude": 10.08333,
    "country": "DE",
    "radius": 5
  },
  {
    "name": "Hamburg",
    "latitude": 53.57532,
    "longitude": 10.01534,
    "country": "DE",
    "radius": 14
  },
  {
    "name": "Halle (Saale)",
    "latitude": 51.5,
    "longitude": 12,
    "country": "DE",
    "radius": 5
  },
  {
    "name": "Gelsenkirchen",
    "latitude": 51.5075,
    "longitude": 7.12283,
    "country": "DE",
    "radius": 5
  },
  {
    "name": "Freiburg",
    "latitude": 47.9959,
    "longitude": 7.85222,
    "country": "DE",
    "radius": 5
  },
  {
    "name": "Frankfurt am Main",
    "latitude": 50.11552,
    "longitude": 8.68417,
    "country": "DE",
    "radius": 8
  },
  {
    "name": "Essen",
    "latitude": 51.45657,
    "longitude": 7.01228,
    "country": "DE",
    "radius": 7
  },
  {
    "name": "Erfurt",
    "latitude": 50.9787,
    "longitude": 11.03283,
    "country": "DE",
    "radius": 5
  },
  {
    "name": "Düsseldorf",
    "latitude": 51.22172,
    "longitude": 6.77616,
    "country": "DE",
    "radius": 7
  },
  {
    "name": "Duisburg",
    "latitude": 51.43247,
    "longitude": 6.76516,
    "country": "DE",
    "radius": 7
  },
  {
    "name": "Dresden",
    "latitude": 51.05089,
    "longitude": 13.73832,
    "country": "DE",
    "radius": 7
  },
  {
    "name": "Dortmund",
    "latitude": 51.51494,
    "longitude": 7.466,
    "country": "DE",
    "radius": 7
  },
  {
    "name": "Chemnitz",
    "latitude": 50.8357,
    "longitude": 12.92922,
    "country": "DE",
    "radius": 5
  },
  {
    "name": "Bremen",
    "latitude": 53.07516,
    "longitude": 8.80777,
    "country": "DE",
    "radius": 7
  },
  {
    "name": "Braunschweig",
    "latitude": 52.26594,
    "longitude": 10.52673,
    "country": "DE",
    "radius": 5
  },
  {
    "name": "Bonn",
    "latitude": 50.73438,
    "longitude": 7.09549,
    "country": "DE",
    "radius": 5
  },
  {
    "name": "Bochum",
    "latitude": 51.48165,
    "longitude": 7.21648,
    "country": "DE",
    "radius": 6
  },
  {
    "name": "Bielefeld",
    "latitude": 52.03333,
    "longitude": 8.53333,
    "country": "DE",
    "radius": 6
  },
  {
    "name": "Berlin",
    "latitude": 52.52437,
    "longitude": 13.41053,
    "country": "DE",
    "radius": 25,
    "neighborhoods": [
      {
        "name": "Neukölln",
        "latitude": 52.440771,
        "longitude": 13.444507,
        "radius": 2
      },
      {
        "name": "Marzahn",
        "latitude": 52.542659,
        "longitude": 13.549363,
        "radius": 2
      },
      {
        "name": "Mitte",
        "latitude": 52.519444,
        "longitude": 13.406667,
        "radius": 2
      },
      {
        "name": "Friedrichshain",
        "latitude": 52.515919,
        "longitude": 13.454574,
        "radius": 2
      },
      {
        "name": "Kreuzberg",
        "latitude": 52.498605,
        "longitude": 13.391799,
        "radius": 2
      },
      {
        "name": "Wilmersdorf",
        "latitude": 52.48333,
        "longitude": 13.31667,
        "radius": 2
      },
      {
        "name": "Charlottenburg",
        "latitude": 52.51667,
        "longitude": 13.28333,
        "radius": 2
      },
      {
        "name": "Moabit",
        "latitude": 52.52635,
        "longitude": 13.33903,
        "radius": 2
      },
      {
        "name": "Pankow",
        "latitude": 52.56926,
        "longitude": 13.40186,
        "radius": 2
      },
      {
        "name": "Prenzlauer Berg",
        "latitude": 52.53878,
        "longitude": 13.42443,
        "radius": 2
      },
      {
        "name": "Reinickendorf",
        "latitude": 52.56667,
        "longitude": 13.33333,
        "radius": 2
      },
      {
        "name": "Wedding",
        "latitude": 52.54734,
        "longitude": 13.35594,
        "radius": 2
      },
      {
        "name": "Tempelhof",
        "latitude": 52.46667,
        "longitude": 13.4,
        "radius": 2
      }
    ]
  },
  {
    "name": "Augsburg",
    "latitude": 48.37154,
    "longitude": 10.89851,
    "country": "DE",
    "radius": 5
  },
  {
    "name": "Aachen",
    "latitude": 50.77664,
    "longitude": 6.08342,
    "country": "DE",
    "radius": 5
  },
  {
    "name": "Copenhagen",
    "latitude": 55.67594,
    "longitude": 12.56553,
    "country": "DK",
    "radius": 11
  },
  {
    "name": "Århus",
    "latitude": 56.15674,
    "longitude": 10.21076,
    "country": "DK",
    "radius": 5
  },
  {
    "name": "Tallinn",
    "latitude": 59.43696,
    "longitude": 24.75353,
    "country": "EE",
    "radius": 6
  },
  {
    "name": "Valencia",
    "latitude": 39.46975,
    "longitude": -0.37739,
    "country": "ES",
    "radius": 9
  },
  {
    "name": "Sevilla",
    "latitude": 37.38283,
    "longitude": -5.97317,
    "country": "ES",
    "radius": 8
  },
  {
    "name": "Palma",
    "latitude": 39.56939,
    "longitude": 2.65024,
    "country": "ES",
    "radius": 6
  },
  {
    "name": "Murcia",
    "latitude": 37.98704,
    "longitude": -1.13004,
    "country": "ES",
    "radius": 6
  },
  {
    "name": "Málaga",
    "latitude": 36.72016,
    "longitude": -4.42034,
    "country": "ES",
    "radius": 7
  },
  {
    "name": "Jerez de la Frontera",
    "latitude": 36.68645,
    "longitude": -6.13606,
    "country": "ES",
    "radius": 5
  },
  {
    "name": "Granada",
    "latitude": 37.18817,
    "longitude": -3.60667,
    "country": "ES",
    "radius": 5
  },
  {
    "name": "Elche",
    "latitude": 38.26218,
    "longitude": -0.70107,
    "country": "ES",
    "radius": 5
  },
  {
    "name": "Córdoba",
    "latitude": 37.89155,
    "longitude": -4.77275,
    "country": "ES",
    "radius": 6
  },
  {
    "name": "Cartagena",
    "latitude": 37.60512,
    "longitude": -0.98623,
    "country": "ES",
    "radius": 5
  },
  {
    "name": "Alicante",
    "latitude": 38.34517,
    "longitude": -0.48149,
    "country": "ES",
    "radius": 6
  },
  {
    "name": "Zaragoza",
    "latitude": 41.65606,
    "longitude": -0.87734,
    "country": "ES",
    "radius": 8
  },
  {
    "name": "Gasteiz / Vitoria",
    "latitude": 42.84998,
    "longitude": -2.67268,
    "country": "ES",
    "radius": 5
  },
  {
    "name": "Vigo",
    "latitude": 42.23282,
    "longitude": -8.72264,
    "country": "ES",
    "radius": 5
  },
  {
    "name": "Valladolid",
    "latitude": 41.65518,
    "longitude": -4.72372,
    "country": "ES",
    "radius": 5
  },
  {
    "name": "Terrassa",
    "latitude": 41.56667,
    "longitude": 2.01667,
    "country": "ES",
    "radius": 5
  },
  {
    "name": "Sabadell",
    "latitude": 41.54329,
    "longitude": 2.10942,
    "country": "ES",
    "radius": 5
  },
  {
    "name": "Puente de Vallecas",
    "latitude": 40.39354,
    "longitude": -3.662,
    "country": "ES",
    "radius": 5
  },
  {
    "name": "Oviedo",
    "latitude": 43.36029,
    "longitude": -5.84476,
    "country": "ES",
    "radius": 5
  },
  {
    "name": "Móstoles",
    "latitude": 40.32234,
    "longitude": -3.86496,
    "country": "ES",
    "radius": 5
  },
  {
    "name": "Madrid",
    "latitude": 40.4165,
    "longitude": -3.70256,
    "country": "ES",
    "radius": 24
  },
  {
    "name": "A Coruña",
    "latitude": 43.37135,
    "longitude": -8.396,
    "country": "ES",
    "radius": 5
  },
  {
    "name": "L'Hospitalet de Llobregat",
    "latitude": 41.35967,
    "longitude": 2.10028,
    "country": "ES",
    "radius": 5
  },
  {
    "name": "Gijón",
    "latitude": 43.53573,
    "longitude": -5.66152,
    "country": "ES",
    "radius": 5
  },
  {
    "name": "Ciudad Lineal",
    "latitude": 40.45455,
    "longitude": -3.64808,
    "country": "ES",
    "radius": 5
  },
  {
    "name": "Bilbao",
    "latitude": 43.26271,
    "longitude": -2.92528,
    "country": "ES",
    "radius": 6
  },
  {
    "name": "Barcelona",
    "latitude": 41.38879,
    "longitude": 2.15899,
    "country": "ES",
    "radius": 14
  },
  {
    "name": "Badalona",
    "latitude": 41.45004,
    "longitude": 2.24741,
    "country": "ES",
    "radius": 5
  },
  {
    "name": "Alcalá de Henares",
    "latitude": 40.48205,
    "longitude": -3.35996,
    "country": "ES",
    "radius": 5
  },
  {
    "name": "Eixample",
    "latitude": 41.38896,
    "longitude": 2.16179,
    "country": "ES",
    "radius": 5
  },
  {
    "name": "Sant Martí",
    "latitude": 41.41814,
    "longitude": 2.19933,
    "country": "ES",
    "radius": 5
  },
  {
    "name": "Latina",
    "latitude": 40.38897,
    "longitude": -3.74569,
    "country": "ES",
    "radius": 5
  },
  {
    "name": "Carabanchel",
    "latitude": 40.39094,
    "longitude": -3.7242,
    "country": "ES",
    "radius": 5
  },
  {
    "name": "Fuencarral-El Pardo",
    "latitude": 40.4984,
    "longitude": -3.7314,
    "country": "ES",
    "radius": 5
  },
  {
    "name": "Tampere",
    "latitude": 61.49911,
    "longitude": 23.78712,
    "country": "FI",
    "radius": 5
  },
  {
    "name": "Helsinki",
    "latitude": 60.16952,
    "longitude": 24.93545,
    "country": "FI",
    "radius": 7
  },
  {
    "name": "Espoo",
    "latitude": 60.2052,
    "longitude": 24.6522,
    "country": "FI",
    "radius": 5
  },
  {
    "name": "Toulouse",
    "latitude": 43.60426,
    "longitude": 1.44367,
    "country": "FR",
    "radius": 6
  },
  {
    "name": "Strasbourg",
    "latitude": 48.58392,
    "longitude": 7.74553,
    "country": "FR",
    "radius": 5
  },
  {
    "name": "Rennes",
    "latitude": 48.11198,
    "longitude": -1.67429,
    "country": "FR",
    "radius": 5
  },
  {
    "name": "Paris",
    "latitude": 48.85341,
    "longitude": 2.3488,
    "country": "FR",
    "radius": 17
  },
  {
    "name": "Nice",
    "latitude": 43.70313,
    "longitude": 7.26608,
    "country": "FR",
    "radius": 6
  },
  {
    "name": "Nantes",
    "latitude": 47.21725,
    "longitude": -1.55336,
    "country": "FR",
    "radius": 5
  },
  {
    "name": "Montpellier",
    "latitude": 43.61092,
    "longitude": 3.87723,
    "country": "FR",
    "radius": 5
  },
  {
    "name": "Marseille",
    "latitude": 43.29695,
    "longitude": 5.38107,
    "country": "FR",
    "radius": 8
  },
  {
    "name": "Lyon",
    "latitude": 45.74846,
    "longitude": 4.84671,
    "country": "FR",
    "radius": 6
  },
  {
    "name": "Lille",
    "latitude": 50.63297,
    "longitude": 3.05858,
    "country": "FR",
    "radius": 5
  },
  {
    "name": "Bordeaux",
    "latitude": 44.84044,
    "longitude": -0.5805,
    "country": "FR",
    "radius": 5
  },
  {
    "name": "Zagreb",
    "latitude": 45.81444,
    "longitude": 15.97798,
    "country": "HR",
    "radius": 8
  },
  {
    "name": "Zagreb - Centar",
    "latitude": 45.81313,
    "longitude": 15.97753,
    "country": "HR",
    "radius": 8
  },
  {
    "name": "Debrecen",
    "latitude": 47.53333,
    "longitude": 21.63333,
    "country": "HU",
    "radius": 5
  },
  {
    "name": "Budapest",
    "latitude": 47.49801,
    "longitude": 19.03991,
    "country": "HU",
    "radius": 14
  },
  {
    "name": "Palermo",
    "latitude": 38.13205,
    "longitude": 13.33561,
    "country": "IT",
    "radius": 8
  },
  {
    "name": "Messina",
    "latitude": 38.19394,
    "longitude": 15.55256,
    "country": "IT",
    "radius": 5
  },
  {
    "name": "Catania",
    "latitude": 37.49223,
    "longitude": 15.07041,
    "country": "IT",
    "radius": 5
  },
  {
    "name": "Verona",
    "latitude": 45.4299,
    "longitude": 10.98444,
    "country": "IT",
    "radius": 5
  },
  {
    "name": "Turin",
    "latitude": 45.07049,
    "longitude": 7.68682,
    "country": "IT",
    "radius": 9
  },
  {
    "name": "Rome",
    "latitude": 41.89193,
    "longitude": 12.51133,
    "country": "IT",
    "radius": 18
  },
  {
    "name": "Padova",
    "latitude": 45.40797,
    "longitude": 11.88586,
    "country": "IT",
    "radius": 5
  },
  {
    "name": "Napoli",
    "latitude": 40.85631,
    "longitude": 14.24641,
    "country": "IT",
    "radius": 9
  },
  {
    "name": "Milano",
    "latitude": 45.46427,
    "longitude": 9.18951,
    "country": "IT",
    "radius": 11
  },
  {
    "name": "Genoa",
    "latitude": 44.4264,
    "longitude": 8.91519,
    "country": "IT",
    "radius": 7
  },
  {
    "name": "Florence",
    "latitude": 43.77925,
    "longitude": 11.24626,
    "country": "IT",
    "radius": 6
  },
  {
    "name": "Bologna",
    "latitude": 44.49381,
    "longitude": 11.33875,
    "country": "IT",
    "radius": 6
  },
  {
    "name": "Bari",
    "latitude": 41.11148,
    "longitude": 16.8554,
    "country": "IT",
    "radius": 5
  },
  {
    "name": "Vilnius",
    "latitude": 54.68916,
    "longitude": 25.2798,
    "country": "LT",
    "radius": 7
  },
  {
    "name": "Kaunas",
    "latitude": 54.9,
    "longitude": 23.9,
    "country": "LT",
    "radius": 6
  },
  {
    "name": "Riga",
    "latitude": 56.946,
    "longitude": 24.10589,
    "country": "LV",
    "radius": 8
  },
  {
    "name": "Utrecht",
    "latitude": 52.09083,
    "longitude": 5.12222,
    "country": "NL",
    "radius": 5
  },
  {
    "name": "The Hague",
    "latitude": 52.07667,
    "longitude": 4.29861,
    "country": "NL",
    "radius": 6
  },
  {
    "name": "Rotterdam",
    "latitude": 51.9225,
    "longitude": 4.47917,
    "country": "NL",
    "radius": 7
  },
  {
    "name": "Eindhoven",
    "latitude": 51.44083,
    "longitude": 5.47778,
    "country": "NL",
    "radius": 5
  },
  {
    "name": "Amsterdam",
    "latitude": 52.37403,
    "longitude": 4.88969,
    "country": "NL",
    "radius": 8
  },
  {
    "name": "Warsaw",
    "latitude": 52.22977,
    "longitude": 21.01178,
    "country": "PL",
    "radius": 14
  },
  {
    "name": "Radom",
    "latitude": 51.40253,
    "longitude": 21.14714,
    "country": "PL",
    "radius": 5
  },
  {
    "name": "Mokotów",
    "latitude": 52.1934,
    "longitude": 21.03487,
    "country": "PL",
    "radius": 5
  },
  {
    "name": "Lublin",
    "latitude": 51.25,
    "longitude": 22.56667,
    "country": "PL",
    "radius": 6
  },
  {
    "name": "Kielce",
    "latitude": 50.87033,
    "longitude": 20.62752,
    "country": "PL",
    "radius": 5
  },
  {
    "name": "Białystok",
    "latitude": 53.13333,
    "longitude": 23.16433,
    "country": "PL",
    "radius": 5
  },
  {
    "name": "Wrocław",
    "latitude": 51.1,
    "longitude": 17.03333,
    "country": "PL",
    "radius": 7
  },
  {
    "name": "Toruń",
    "latitude": 53.01375,
    "longitude": 18.59814,
    "country": "PL",
    "radius": 5
  },
  {
    "name": "Szczecin",
    "latitude": 53.42894,
    "longitude": 14.55302,
    "country": "PL",
    "radius": 6
  },
  {
    "name": "Sosnowiec",
    "latitude": 50.28682,
    "longitude": 19.10385,
    "country": "PL",
    "radius": 5
  },
  {
    "name": "Poznań",
    "latitude": 52.40692,
    "longitude": 16.92993,
    "country": "PL",
    "radius": 7
  },
  {
    "name": "Łódź",
    "latitude": 51.75,
    "longitude": 19.46667,
    "country": "PL",
    "radius": 8
  },
  {
    "name": "Kraków",
    "latitude": 50.06143,
    "longitude": 19.93658,
    "country": "PL",
    "radius": 8
  },
  {
    "name": "Katowice",
    "latitude": 50.25841,
    "longitude": 19.02754,
    "country": "PL",
    "radius": 5
  },
  {
    "name": "Gdynia",
    "latitude": 54.51889,
    "longitude": 18.53188,
    "country": "PL",
    "radius": 5
  },
  {
    "name": "Gdańsk",
    "latitude": 54.35205,
    "longitude": 18.64637,
    "country": "PL",
    "radius": 6
  },
  {
    "name": "Częstochowa",
    "latitude": 50.79646,
    "longitude": 19.12409,
    "country": "PL",
    "radius": 5
  },
  {
    "name": "Bydgoszcz",
    "latitude": 53.1235,
    "longitude": 18.00762,
    "country": "PL",
    "radius": 6
  },
  {
    "name": "Lisbon",
    "latitude": 38.71667,
    "longitude": -9.13333,
    "country": "PT",
    "radius": 7
  },
  {
    "name": "Porto",
    "latitude": 41.14961,
    "longitude": -8.61099,
    "country": "PT",
    "radius": 5
  },
  {
    "name": "Stockholm",
    "latitude": 59.33258,
    "longitude": 18.0649,
    "country": "SE",
    "radius": 11
  },
  {
    "name": "Malmö",
    "latitude": 55.60587,
    "longitude": 13.00073,
    "country": "SE",
    "radius": 5
  },
  {
    "name": "Göteborg",
    "latitude": 57.70716,
    "longitude": 11.96679,
    "country": "SE",
    "radius": 7
  },
  {
    "name": "Ljubljana",
    "latitude": 46.05108,
    "longitude": 14.50513,
    "country": "SI",
    "radius": 5
  },
  {
    "name": "Košice",
    "latitude": 48.71395,
    "longitude": 21.25808,
    "country": "SK",
    "radius": 5
  },
  {
    "name": "Bratislava",
    "latitude": 48.14816,
    "longitude": 17.10674,
    "country": "SK",
    "radius": 6
  }
]